{ "type": "Feature", "properties": { "id": 0, "Name": "Marietta", "Space_Accu": "High", "Type": "City", "Natur_Type": null, "Wikipedia": null, "Info": null }, "geometry": { "type": "Point", "coordinates": [ -82.2801, 37.11 ] } }
{ "type": "Feature", "properties": { "id": 0, "Name": "Pikeville", "Space_Accu": null, "Type": null, "Natur_Type": null, "Wikipedia": null, "Info": null }, "geometry": { "type": "Point", "coordinates": [ -82.5188, 37.4793 ] } }
{ "type": "Feature", "properties": { "id": 0, "Name": "Newberry", "Space_Accu": null, "Type": null, "Natur_Type": null, "Wikipedia": null, "Info": null }, "geometry": { "type": "Point", "coordinates": [ -81.6187, 34.2746 ] } }
{ "type": "Feature", "properties": { "id": 0, "Name": "Saluda", "Space_Accu": null, "Type": null, "Natur_Type": null, "Wikipedia": null, "Info": null }, "geometry": { "type": "Point", "coordinates": [ -81.771691, 34.003131 ] } }
{ "type": "Feature", "properties": { "id": 0, "Name": "Abbeville", "Space_Accu": null, "Type": null, "Natur_Type": null, "Wikipedia": null, "Info": null }, "geometry": { "type": "Point", "coordinates": [ -82.379, 34.1782 ] } }
{ "type": "Feature", "properties": { "id": 0, "Name": "Columbia", "Space_Accu": null, "Type": null, "Natur_Type": null, "Wikipedia": null, "Info": null }, "geometry": { "type": "Point", "coordinates": [ -81.0348, 34.0007 ] } }
{ "type": "Feature", "properties": { "id": 0, "Name": "Elberton", "Space_Accu": null, "Type": null, "Natur_Type": null, "Wikipedia": null, "Info": null }, "geometry": { "type": "Point", "coordinates": [ -82.8671, 34.1112 ] } }
{ "type": "Feature", "properties": { "id": 0, "Name": "Camden", "Space_Accu": null, "Type": null, "Natur_Type": null, "Wikipedia": null, "Info": null }, "geometry": { "type": "Point", "coordinates": [ -80.607, 34.2465 ] } }
{ "type": "Feature", "properties": { "id": 0, "Name": "Lancaster", "Space_Accu": null, "Type": null, "Natur_Type": null, "Wikipedia": null, "Info": null }, "geometry": { "type": "Point", "coordinates": [ -80.7709, 34.7204 ] } }
{ "type": "Feature", "properties": { "id": 0, "Name": "Dallas", "Space_Accu": null, "Type": null, "Natur_Type": null, "Wikipedia": null, "Info": null }, "geometry": { "type": "Point", "coordinates": [ -81.1762, 35.3165 ] } }
{ "type": "Feature", "properties": { "id": 0, "Name": "Shelby", "Space_Accu": null, "Type": null, "Natur_Type": null, "Wikipedia": null, "Info": null }, "geometry": { "type": "Point", "coordinates": [ -81.5356, 35.2924 ] } }
{ "type": "Feature", "properties": { "id": 0, "Name": "Yorkville", "Space_Accu": null, "Type": null, "Natur_Type": null, "Wikipedia": null, "Info": null }, "geometry": { "type": "Point", "coordinates": [ -81.242, 34.9943 ] } }
{ "type": "Feature", "properties": { "id": 0, "Name": "Columbus", "Space_Accu": null, "Type": null, "Natur_Type": null, "Wikipedia": null, "Info": null }, "geometry": { "type": "Point", "coordinates": [ -82.1971, 35.2532 ] } }
{ "type": "Feature", "properties": { "id": 0, "Name": "Laurens", "Space_Accu": null, "Type": null, "Natur_Type": null, "Wikipedia": null, "Info": null }, "geometry": { "type": "Point", "coordinates": [ -82.0143, 34.499 ] } }
{ "type": "Feature", "properties": { "id": 0, "Name": "Lincolnton", "Space_Accu": null, "Type": null, "Natur_Type": null, "Wikipedia": null, "Info": null }, "geometry": { "type": "Point", "coordinates": [ -82.479, 33.7923 ] } }
{ "type": "Feature", "properties": { "id": 0, "Name": "Greenville", "Space_Accu": null, "Type": null, "Natur_Type": null, "Wikipedia": null, "Info": null }, "geometry": { "type": "Point", "coordinates": [ -82.394, 34.8526 ] } }
{ "type": "Feature", "properties": { "id": 0, "Name": "Hartwell", "Space_Accu": null, "Type": null, "Natur_Type": null, "Wikipedia": null, "Info": null }, "geometry": { "type": "Point", "coordinates": [ -82.9321, 34.3529 ] } }
{ "type": "Feature", "properties": { "id": 0, "Name": "Lincolnton", "Space_Accu": null, "Type": null, "Natur_Type": null, "Wikipedia": null, "Info": null }, "geometry": { "type": "Point", "coordinates": [ -81.2545, 35.4737 ] } }
{ "type": "Feature", "properties": { "id": 0, "Name": "Newton", "Space_Accu": null, "Type": null, "Natur_Type": null, "Wikipedia": null, "Info": null }, "geometry": { "type": "Point", "coordinates": [ -81.2215, 35.6699 ] } }
{ "type": "Feature", "properties": { "id": 0, "Name": "Tayloreville", "Space_Accu": null, "Type": null, "Natur_Type": null, "Wikipedia": null, "Info": null }, "geometry": { "type": "Point", "coordinates": [ -81.1769, 35.9217 ] } }
{ "type": "Feature", "properties": { "id": 0, "Name": "Statesville", "Space_Accu": null, "Type": null, "Natur_Type": null, "Wikipedia": null, "Info": null }, "geometry": { "type": "Point", "coordinates": [ -80.8873, 35.7826 ] } }
{ "type": "Feature", "properties": { "id": 0, "Name": "Marion", "Space_Accu": null, "Type": null, "Natur_Type": null, "Wikipedia": null, "Info": null }, "geometry": { "type": "Point", "coordinates": [ -82.0093, 35.684 ] } }
{ "type": "Feature", "properties": { "id": 0, "Name": "Burnsville", "Space_Accu": null, "Type": null, "Natur_Type": null, "Wikipedia": null, "Info": null }, "geometry": { "type": "Point", "coordinates": [ -82.301, 35.9173 ] } }
{ "type": "Feature", "properties": { "id": 0, "Name": "Boone", "Space_Accu": null, "Type": null, "Natur_Type": null, "Wikipedia": null, "Info": null }, "geometry": { "type": "Point", "coordinates": [ -81.6746, 36.2168 ] } }
{ "type": "Feature", "properties": { "id": 0, "Name": "Lenoir", "Space_Accu": null, "Type": null, "Natur_Type": null, "Wikipedia": null, "Info": null }, "geometry": { "type": "Point", "coordinates": [ -81.539, 35.914 ] } }
{ "type": "Feature", "properties": { "id": 0, "Name": "Wilkesborough", "Space_Accu": null, "Type": null, "Natur_Type": null, "Wikipedia": null, "Info": null }, "geometry": { "type": "Point", "coordinates": [ -81.1606, 36.146 ] } }
{ "type": "Feature", "properties": { "id": 0, "Name": "Sparta", "Space_Accu": null, "Type": null, "Natur_Type": null, "Wikipedia": null, "Info": null }, "geometry": { "type": "Point", "coordinates": [ -81.1209, 36.5054 ] } }
{ "type": "Feature", "properties": { "id": 0, "Name": "Jefferson", "Space_Accu": null, "Type": null, "Natur_Type": null, "Wikipedia": null, "Info": null }, "geometry": { "type": "Point", "coordinates": [ -81.4734, 36.4204 ] } }
{ "type": "Feature", "properties": { "id": 0, "Name": "Elizabethtown", "Space_Accu": null, "Type": null, "Natur_Type": null, "Wikipedia": null, "Info": null }, "geometry": { "type": "Point", "coordinates": [ -82.2107, 36.3487 ] } }
{ "type": "Feature", "properties": { "id": 0, "Name": "Blountsville", "Space_Accu": null, "Type": null, "Natur_Type": null, "Wikipedia": null, "Info": null }, "geometry": { "type": "Point", "coordinates": [ -82.3268, 36.5332 ] } }
{ "type": "Feature", "properties": { "id": 0, "Name": "Greenville", "Space_Accu": null, "Type": null, "Natur_Type": null, "Wikipedia": null, "Info": null }, "geometry": { "type": "Point", "coordinates": [ -82.831, 36.1632 ] } }
{ "type": "Feature", "properties": { "id": 0, "Name": "Jonesboro", "Space_Accu": null, "Type": null, "Natur_Type": null, "Wikipedia": null, "Info": null }, "geometry": { "type": "Point", "coordinates": [ -82.4735, 36.2943 ] } }
{ "type": "Feature", "properties": { "id": 0, "Name": "Marshal", "Space_Accu": null, "Type": null, "Natur_Type": null, "Wikipedia": null, "Info": null }, "geometry": { "type": "Point", "coordinates": [ -82.684, 35.7973 ] } }
{ "type": "Feature", "properties": { "id": 0, "Name": "Ashville", "Space_Accu": null, "Type": null, "Natur_Type": null, "Wikipedia": null, "Info": null }, "geometry": { "type": "Point", "coordinates": [ -82.5515, 35.5951 ] } }
{ "type": "Feature", "properties": { "id": 0, "Name": "Hendersonville", "Space_Accu": null, "Type": null, "Natur_Type": null, "Wikipedia": null, "Info": null }, "geometry": { "type": "Point", "coordinates": [ -82.461, 35.3187 ] } }
{ "type": "Feature", "properties": { "id": 0, "Name": "Brevard", "Space_Accu": null, "Type": null, "Natur_Type": null, "Wikipedia": null, "Info": null }, "geometry": { "type": "Point", "coordinates": [ -82.7343, 35.2334 ] } }
{ "type": "Feature", "properties": { "id": 0, "Name": "Clayton", "Space_Accu": null, "Type": null, "Natur_Type": null, "Wikipedia": null, "Info": null }, "geometry": { "type": "Point", "coordinates": [ -83.401, 34.8781 ] } }
{ "type": "Feature", "properties": { "id": 0, "Name": "Clarkesville", "Space_Accu": null, "Type": null, "Natur_Type": null, "Wikipedia": null, "Info": null }, "geometry": { "type": "Point", "coordinates": [ -83.5249, 34.6126 ] } }
{ "type": "Feature", "properties": { "id": 0, "Name": "Currahee Mountain", "Space_Accu": null, "Type": null, "Natur_Type": null, "Wikipedia": null, "Info": null }, "geometry": { "type": "Point", "coordinates": [ -83.3757, 34.5293 ] } }
{ "type": "Feature", "properties": { "id": 0, "Name": "Pickens", "Space_Accu": null, "Type": null, "Natur_Type": null, "Wikipedia": null, "Info": null }, "geometry": { "type": "Point", "coordinates": [ -82.7074, 34.8834 ] } }
{ "type": "Feature", "properties": { "id": 0, "Name": "Walhalla", "Space_Accu": null, "Type": null, "Natur_Type": null, "Wikipedia": null, "Info": null }, "geometry": { "type": "Point", "coordinates": [ -83.064, 34.7648 ] } }
{ "type": "Feature", "properties": { "id": 0, "Name": "Danielsville", "Space_Accu": null, "Type": null, "Natur_Type": null, "Wikipedia": null, "Info": null }, "geometry": { "type": "Point", "coordinates": [ -83.2213, 34.1243 ] } }
{ "type": "Feature", "properties": { "id": 0, "Name": "Lexington", "Space_Accu": null, "Type": null, "Natur_Type": null, "Wikipedia": null, "Info": null }, "geometry": { "type": "Point", "coordinates": [ -83.1118, 33.8698 ] } }
{ "type": "Feature", "properties": { "id": 0, "Name": "Athens", "Space_Accu": null, "Type": null, "Natur_Type": null, "Wikipedia": null, "Info": null }, "geometry": { "type": "Point", "coordinates": [ -83.3576, 33.9519 ] } }
{ "type": "Feature", "properties": { "id": 0, "Name": "Buffalo Lick", "Space_Accu": null, "Type": null, "Natur_Type": null, "Wikipedia": null, "Info": null }, "geometry": { "type": "Point", "coordinates": [ -83.0529296, 33.6059614 ] } }
{ "type": "Feature", "properties": { "id": 0, "Name": "Cherokee Corner", "Space_Accu": null, "Type": "Church", "Natur_Type": null, "Wikipedia": null, "Info": null }, "geometry": { "type": "Point", "coordinates": [ -83.2335, 33.8947 ] } }
{ "type": "Feature", "properties": { "id": 0, "Name": "Gainesville", "Space_Accu": null, "Type": "City", "Natur_Type": null, "Wikipedia": null, "Info": null }, "geometry": { "type": "Point", "coordinates": [ -83.8241, 34.2979 ] } }
{ "type": "Feature", "properties": { "id": 0, "Name": "Lawrenceville", "Space_Accu": null, "Type": "City", "Natur_Type": null, "Wikipedia": null, "Info": null }, "geometry": { "type": "Point", "coordinates": [ -83.988, 33.9562 ] } }
{ "type": "Feature", "properties": { "id": 0, "Name": "Monroe", "Space_Accu": null, "Type": "City", "Natur_Type": null, "Wikipedia": null, "Info": null }, "geometry": { "type": "Point", "coordinates": [ -83.7132, 33.7948 ] } }
{ "type": "Feature", "properties": { "id": 0, "Name": "Watkinsville", "Space_Accu": null, "Type": "City", "Natur_Type": null, "Wikipedia": null, "Info": null }, "geometry": { "type": "Point", "coordinates": [ -83.4088, 33.8629 ] } }
{ "type": "Feature", "properties": { "id": 0, "Name": "Homer", "Space_Accu": null, "Type": "City", "Natur_Type": null, "Wikipedia": null, "Info": null }, "geometry": { "type": "Point", "coordinates": [ -83.4991, 34.3337 ] } }
{ "type": "Feature", "properties": { "id": 0, "Name": "Toccoa Falls", "Space_Accu": null, "Type": "Natural", "Natur_Type": "Waterfall", "Wikipedia": null, "Info": null }, "geometry": { "type": "Point", "coordinates": [ -83.3567, 34.5942 ] } }
{ "type": "Feature", "properties": { "id": 0, "Name": "Yonah", "Space_Accu": null, "Type": "City", "Natur_Type": null, "Wikipedia": null, "Info": null }, "geometry": { "type": "Point", "coordinates": [ -83.7536, 34.6411 ] } }
{ "type": "Feature", "properties": { "id": 0, "Name": "Hog Mountain", "Space_Accu": null, "Type": "Natural", "Natur_Type": "Mountain", "Wikipedia": null, "Info": null }, "geometry": { "type": "Point", "coordinates": [ -83.9291, 34.0495 ] } }
{ "type": "Feature", "properties": { "id": 0, "Name": "Suwanee Old Town", "Space_Accu": null, "Type": "City", "Natur_Type": null, "Wikipedia": null, "Info": null }, "geometry": { "type": "Point", "coordinates": [ -84.0713, 34.0515 ] } }
{ "type": "Feature", "properties": { "id": 0, "Name": "Stone Mountain", "Space_Accu": null, "Type": "Natural", "Natur_Type": "Mountain", "Wikipedia": null, "Info": null }, "geometry": { "type": "Point", "coordinates": [ -84.1455, 33.8053 ] } }
{ "type": "Feature", "properties": { "id": 0, "Name": "Monroe", "Space_Accu": null, "Type": "City", "Natur_Type": null, "Wikipedia": null, "Info": null }, "geometry": { "type": "Point", "coordinates": [ -83.7132, 33.7948 ] } }
{ "type": "Feature", "properties": { "id": 0, "Name": "Decatur", "Space_Accu": null, "Type": "City", "Natur_Type": null, "Wikipedia": null, "Info": null }, "geometry": { "type": "Point", "coordinates": [ -84.2963, 33.7748 ] } }
{ "type": "Feature", "properties": { "id": 0, "Name": "Noccocsee", "Space_Accu": null, "Type": "Census-Designated Place", "Natur_Type": null, "Wikipedia": "https:\/\/en.wikipedia.org\/wiki\/Sautee_Nacoochee,_Georgia", "Info": "https:\/\/wandernorthgeorgia.com\/the-story-of-the-sautee-nacoochee-indian-mound\/" }, "geometry": { "type": "Point", "coordinates": [ -83.6744, 34.684 ] } }
{ "type": "Feature", "properties": { "id": 0, "Name": "Cumming", "Space_Accu": null, "Type": "City", "Natur_Type": null, "Wikipedia": null, "Info": null }, "geometry": { "type": "Point", "coordinates": [ -84.1402, 34.2073 ] } }
{ "type": "Feature", "properties": { "id": 0, "Name": "Jefferson", "Space_Accu": null, "Type": "City", "Natur_Type": null, "Wikipedia": null, "Info": null }, "geometry": { "type": "Point", "coordinates": [ -83.5724, 34.1171 ] } }
{ "type": "Feature", "properties": { "id": 0, "Name": "Carnesville", "Space_Accu": null, "Type": "City", "Natur_Type": null, "Wikipedia": null, "Info": null }, "geometry": { "type": "Point", "coordinates": [ -83.2352, 34.3698 ] } }
{ "type": "Feature", "properties": { "id": 0, "Name": "Hillsville", "Space_Accu": null, "Type": "Town", "Natur_Type": null, "Wikipedia": null, "Info": null }, "geometry": { "type": "Point", "coordinates": [ -80.7348, 36.7626 ] } }
{ "type": "Feature", "properties": { "id": 0, "Name": "Newbern", "Space_Accu": null, "Type": "Town", "Natur_Type": null, "Wikipedia": null, "Info": null }, "geometry": { "type": "Point", "coordinates": [ -80.6906, 37.0735 ] } }
{ "type": "Feature", "properties": { "id": 0, "Name": "Marion", "Space_Accu": null, "Type": "Town", "Natur_Type": null, "Wikipedia": null, "Info": null }, "geometry": { "type": "Point", "coordinates": [ -81.5148, 36.8348 ] } }
{ "type": "Feature", "properties": { "id": 0, "Name": "Floyd", "Space_Accu": null, "Type": "Town", "Natur_Type": null, "Wikipedia": null, "Info": null }, "geometry": { "type": "Point", "coordinates": [ -80.3201, 36.9112 ] } }
{ "type": "Feature", "properties": { "id": 0, "Name": "Chistiansburg", "Space_Accu": null, "Type": "Town", "Natur_Type": null, "Wikipedia": null, "Info": null }, "geometry": { "type": "Point", "coordinates": [ -80.4089, 37.1299 ] } }
{ "type": "Feature", "properties": { "id": 0, "Name": "Pearisburg", "Space_Accu": null, "Type": "Town", "Natur_Type": null, "Wikipedia": null, "Info": null }, "geometry": { "type": "Point", "coordinates": [ -80.7351, 37.3265 ] } }
{ "type": "Feature", "properties": { "id": 0, "Name": "Princeton", "Space_Accu": null, "Type": "City", "Natur_Type": null, "Wikipedia": null, "Info": null }, "geometry": { "type": "Point", "coordinates": [ -81.1026, 37.3662 ] } }
{ "type": "Feature", "properties": { "id": 0, "Name": "Hinton", "Space_Accu": null, "Type": "City", "Natur_Type": null, "Wikipedia": null, "Info": null }, "geometry": { "type": "Point", "coordinates": [ -80.8893, 37.674 ] } }
{ "type": "Feature", "properties": { "id": 0, "Name": "Raleigh", "Space_Accu": null, "Type": "Town", "Natur_Type": null, "Wikipedia": null, "Info": null }, "geometry": { "type": "Point", "coordinates": [ -81.1743, 37.7568 ] } }
{ "type": "Feature", "properties": { "id": 0, "Name": "Fayetteville", "Space_Accu": null, "Type": "Town", "Natur_Type": null, "Wikipedia": null, "Info": null }, "geometry": { "type": "Point", "coordinates": [ -81.104, 38.0529 ] } }
{ "type": "Feature", "properties": { "id": 0, "Name": "Charleston", "Space_Accu": null, "Type": "City", "Natur_Type": null, "Wikipedia": null, "Info": null }, "geometry": { "type": "Point", "coordinates": [ -81.6326, 38.3498 ] } }
{ "type": "Feature", "properties": { "id": 0, "Name": "Winfield", "Space_Accu": null, "Type": "Town", "Natur_Type": null, "Wikipedia": null, "Info": null }, "geometry": { "type": "Point", "coordinates": [ -81.8935, 38.5331 ] } }
{ "type": "Feature", "properties": { "id": 0, "Name": "Point Pleasent", "Space_Accu": null, "Type": "City", "Natur_Type": null, "Wikipedia": null, "Info": null }, "geometry": { "type": "Point", "coordinates": [ -82.1371, 38.8445 ] } }
{ "type": "Feature", "properties": { "id": 0, "Name": "Barboursville", "Space_Accu": null, "Type": "Village", "Natur_Type": null, "Wikipedia": null, "Info": null }, "geometry": { "type": "Point", "coordinates": [ -82.2946, 38.4095 ] } }
{ "type": "Feature", "properties": { "id": 0, "Name": "Hamlin", "Space_Accu": null, "Type": "Town", "Natur_Type": null, "Wikipedia": null, "Info": null }, "geometry": { "type": "Point", "coordinates": [ -82.1029, 38.2787 ] } }
{ "type": "Feature", "properties": { "id": 0, "Name": "Wayne", "Space_Accu": null, "Type": "Town", "Natur_Type": null, "Wikipedia": null, "Info": null }, "geometry": { "type": "Point", "coordinates": [ -82.4424, 38.2215 ] } }
{ "type": "Feature", "properties": { "id": 0, "Name": "Wise", "Space_Accu": null, "Type": null, "Natur_Type": null, "Wikipedia": null, "Info": null }, "geometry": { "type": "Point", "coordinates": [ -82.5757, 36.9759 ] } }
{ "type": "Feature", "properties": { "id": 0, "Name": "Abingdon", "Space_Accu": null, "Type": "Town", "Natur_Type": null, "Wikipedia": null, "Info": null }, "geometry": { "type": "Point", "coordinates": [ -81.9773, 36.7098 ] } }
{ "type": "Feature", "properties": { "id": 0, "Name": "Independence", "Space_Accu": null, "Type": "Town", "Natur_Type": null, "Wikipedia": null, "Info": null }, "geometry": { "type": "Point", "coordinates": [ -81.1509, 36.6223 ] } }
{ "type": "Feature", "properties": { "id": 0, "Name": "Chiswell's Mine", "Space_Accu": "Low", "Type": "Mine", "Natur_Type": null, "Wikipedia": null, "Info": null }, "geometry": { "type": "Point", "coordinates": [ -80.9536111, 36.8469444 ] } }
{ "type": "Feature", "properties": { "id": 0, "Name": "Patrick", "Space_Accu": "Medium", "Type": "County", "Natur_Type": null, "Wikipedia": null, "Info": null }, "geometry": { "type": "Point", "coordinates": [ -80.3213, 36.6886 ] } }
{ "type": "Feature", "properties": { "id": 0, "Name": "Carollton", "Space_Accu": null, "Type": "City", "Natur_Type": null, "Wikipedia": null, "Info": null }, "geometry": { "type": "Point", "coordinates": [ -85.1794, 38.6809 ] } }
{ "type": "Feature", "properties": { "id": 0, "Name": "Hazard", "Space_Accu": null, "Type": "City", "Natur_Type": null, "Wikipedia": null, "Info": null }, "geometry": { "type": "Point", "coordinates": [ -83.1932, 37.2495 ] } }
{ "type": "Feature", "properties": { "id": 0, "Name": "Whitesburg", "Space_Accu": null, "Type": "City", "Natur_Type": null, "Wikipedia": null, "Info": null }, "geometry": { "type": "Point", "coordinates": [ -82.8268, 37.1184 ] } }
{ "type": "Feature", "properties": { "id": 0, "Name": "Pineville", "Space_Accu": null, "Type": "City", "Natur_Type": null, "Wikipedia": null, "Info": null }, "geometry": { "type": "Point", "coordinates": [ -83.6949, 36.762 ] } }
{ "type": "Feature", "properties": { "id": 0, "Name": "Sneedville", "Space_Accu": null, "Type": "Town", "Natur_Type": null, "Wikipedia": null, "Info": null }, "geometry": { "type": "Point", "coordinates": [ -83.2174, 36.5298 ] } }
{ "type": "Feature", "properties": { "id": 0, "Name": "Rogersville", "Space_Accu": null, "Type": "Town", "Natur_Type": null, "Wikipedia": null, "Info": null }, "geometry": { "type": "Point", "coordinates": [ -83.0054, 36.4073 ] } }
{ "type": "Feature", "properties": { "id": 0, "Name": "Waynesville", "Space_Accu": null, "Type": "Town", "Natur_Type": null, "Wikipedia": null, "Info": null }, "geometry": { "type": "Point", "coordinates": [ -82.9887, 35.4887 ] } }
{ "type": "Feature", "properties": { "id": 0, "Name": "Mt. Pisgah", "Space_Accu": null, "Type": "Natural", "Natur_Type": "Mountain", "Wikipedia": null, "Info": null }, "geometry": { "type": "Point", "coordinates": [ -82.7568, 35.4259 ] } }
{ "type": "Feature", "properties": { "id": 0, "Name": "Webster", "Space_Accu": null, "Type": "Town", "Natur_Type": null, "Wikipedia": null, "Info": null }, "geometry": { "type": "Point", "coordinates": [ -83.2193, 35.3462 ] } }
{ "type": "Feature", "properties": { "id": 0, "Name": "Maryville", "Space_Accu": null, "Type": "City", "Natur_Type": null, "Wikipedia": null, "Info": null }, "geometry": { "type": "Point", "coordinates": [ -83.9705, 35.7565 ] } }
{ "type": "Feature", "properties": { "id": 0, "Name": "Kingston", "Space_Accu": null, "Type": "City", "Natur_Type": null, "Wikipedia": null, "Info": null }, "geometry": { "type": "Point", "coordinates": [ -84.5085, 35.8809 ] } }
{ "type": "Feature", "properties": { "id": 0, "Name": "Wildcat Rock", "Space_Accu": null, "Type": "Natural", "Natur_Type": "Rock", "Wikipedia": null, "Info": null }, "geometry": { "type": "Point", "coordinates": [ -84.221, 35.6162 ] } }
{ "type": "Feature", "properties": { "id": 0, "Name": "Clinton", "Space_Accu": null, "Type": "City", "Natur_Type": null, "Wikipedia": null, "Info": null }, "geometry": { "type": "Point", "coordinates": [ -84.1319, 36.1034 ] } }
{ "type": "Feature", "properties": { "id": 0, "Name": "Jacksboro", "Space_Accu": null, "Type": "Town", "Natur_Type": null, "Wikipedia": null, "Info": null }, "geometry": { "type": "Point", "coordinates": [ -84.1838, 36.3301 ] } }
{ "type": "Feature", "properties": { "id": 0, "Name": "Dunlap", "Space_Accu": null, "Type": null, "Natur_Type": null, "Wikipedia": null, "Info": null }, "geometry": { "type": "Point", "coordinates": [ -85.3905, 35.3715 ] } }
{ "type": "Feature", "properties": { "id": 0, "Name": "Altamont", "Space_Accu": null, "Type": "Town", "Natur_Type": null, "Wikipedia": null, "Info": null }, "geometry": { "type": "Point", "coordinates": [ -85.723, 35.4295 ] } }
{ "type": "Feature", "properties": { "id": 0, "Name": "Manchester", "Space_Accu": null, "Type": "City", "Natur_Type": null, "Wikipedia": null, "Info": null }, "geometry": { "type": "Point", "coordinates": [ -86.0886, 35.4817 ] } }
{ "type": "Feature", "properties": { "id": 0, "Name": "Old Stone Fort", "Space_Accu": null, "Type": "State Archeological Park", "Natur_Type": null, "Wikipedia": null, "Info": null }, "geometry": { "type": "Point", "coordinates": [ -86.107778, 35.482778 ] } }
{ "type": "Feature", "properties": { "id": 0, "Name": "Crab Orchard", "Space_Accu": null, "Type": "County", "Natur_Type": null, "Wikipedia": null, "Info": null }, "geometry": { "type": "Point", "coordinates": [ -84.877222, 35.905833 ] } }
{ "type": "Feature", "properties": { "id": 0, "Name": "Hiwassee Garison", "Space_Accu": null, "Type": "Historical Area", "Natur_Type": null, "Wikipedia": "https:\/\/commons.wikimedia.org\/wiki\/File:Hiwassee_Garrison_Site.jpg", "Info": null }, "geometry": { "type": "Point", "coordinates": [ -84.989167, 35.4425 ] } }
{ "type": "Feature", "properties": { "id": 0, "Name": "Jolly's Island", "Space_Accu": null, "Type": "Natural", "Natur_Type": "Island", "Wikipedia": "https:\/\/www.timesfreepress.com\/news\/local\/story\/2016\/mar\/28\/hidden-history-hiwassee-islandgrovisits-meigs\/357387\/", "Info": null }, "geometry": { "type": "Point", "coordinates": [ -84.9886, 35.4217 ] } }
{ "type": "Feature", "properties": { "id": 0, "Name": "Fort Charlotte", "Space_Accu": "High", "Type": "Fort", "Natur_Type": null, "Wikipedia": "https:\/\/en.wikipedia.org\/wiki\/Fort_Charlotte_(South_Carolina)", "Info": null }, "geometry": { "type": "Point", "coordinates": [ -82.554444, 33.945 ] } }
{ "type": "Feature", "properties": { "id": 0, "Name": "Boon's Fort", "Space_Accu": "Low", "Type": "Fort", "Natur_Type": null, "Wikipedia": null, "Info": "https:\/\/www.hmdb.org\/m.asp?m=25200" }, "geometry": { "type": "Point", "coordinates": [ -82.3883925, 34.0851932 ] } }
{ "type": "Feature", "properties": { "id": 0, "Name": "Fort Waggoner (Wagner)", "Space_Accu": "High", "Type": "Fort", "Natur_Type": null, "Wikipedia": null, "Info": "http:\/\/mearsm2.tripod.com\/~MearsM2\/Waggoner.html" }, "geometry": { "type": "Point", "coordinates": [ -81.320895, 34.487148 ] } }
{ "type": "Feature", "properties": { "id": 0, "Name": "Clarke's Battleground", "Space_Accu": "High", "Type": "Marker of Battleground", "Natur_Type": null, "Wikipedia": null, "Info": "https:\/\/theindianwars.blogspot.com\/2008\/03\/battle-of-jacks-creek.html" }, "geometry": { "type": "Point", "coordinates": [ -83.711617, 33.794867 ] } }
{ "type": "Feature", "properties": { "id": 0, "Name": "Benton", "Space_Accu": "High", "Type": "City", "Natur_Type": null, "Wikipedia": null, "Info": null }, "geometry": { "type": "Point", "coordinates": [ -88.3503, 36.8573 ] } }
{ "type": "Feature", "properties": { "id": 0, "Name": "Paducah", "Space_Accu": "High", "Type": "City", "Natur_Type": null, "Wikipedia": null, "Info": null }, "geometry": { "type": "Point", "coordinates": [ -88.6, 37.0834 ] } }
{ "type": "Feature", "properties": { "id": 0, "Name": "Eddyville", "Space_Accu": "High", "Type": "City", "Natur_Type": null, "Wikipedia": null, "Info": null }, "geometry": { "type": "Point", "coordinates": [ -88.0803, 37.0945 ] } }
{ "type": "Feature", "properties": { "id": 0, "Name": "Murray", "Space_Accu": "High", "Type": "City", "Natur_Type": null, "Wikipedia": null, "Info": null }, "geometry": { "type": "Point", "coordinates": [ -88.3148, 36.6103 ] } }
{ "type": "Feature", "properties": { "id": 0, "Name": "Smithville", "Space_Accu": "High", "Type": "City", "Natur_Type": null, "Wikipedia": null, "Info": null }, "geometry": { "type": "Point", "coordinates": [ -88.4034, 37.1389 ] } }
{ "type": "Feature", "properties": { "id": 0, "Name": "Dover", "Space_Accu": "High", "Type": "CIty", "Natur_Type": null, "Wikipedia": null, "Info": null }, "geometry": { "type": "Point", "coordinates": [ -87.8384, 36.4878 ] } }
{ "type": "Feature", "properties": { "id": 0, "Name": "Erin", "Space_Accu": "High", "Type": "City", "Natur_Type": null, "Wikipedia": null, "Info": null }, "geometry": { "type": "Point", "coordinates": [ -87.6947, 36.3184 ] } }
{ "type": "Feature", "properties": { "id": 0, "Name": "Franklin", "Space_Accu": "High", "Type": "City", "Natur_Type": null, "Wikipedia": null, "Info": null }, "geometry": { "type": "Point", "coordinates": [ -86.8689, 35.9251 ] } }
{ "type": "Feature", "properties": { "id": 0, "Name": "Woodbury", "Space_Accu": "High", "Type": "Town", "Natur_Type": null, "Wikipedia": null, "Info": null }, "geometry": { "type": "Point", "coordinates": [ -86.0717, 35.8276 ] } }
{ "type": "Feature", "properties": { "id": 0, "Name": "Smithville", "Space_Accu": "High", "Type": "City", "Natur_Type": null, "Wikipedia": null, "Info": null }, "geometry": { "type": "Point", "coordinates": [ -85.8142, 35.9606 ] } }
{ "type": "Feature", "properties": { "id": 0, "Name": "McMinnvilleq", "Space_Accu": "High", "Type": "City", "Natur_Type": null, "Wikipedia": null, "Info": null }, "geometry": { "type": "Point", "coordinates": [ -85.7801, 35.6866 ] } }
{ "type": "Feature", "properties": { "id": 0, "Name": "Cooksville", "Space_Accu": "High", "Type": "City", "Natur_Type": null, "Wikipedia": null, "Info": null }, "geometry": { "type": "Point", "coordinates": [ -85.5016, 36.1628 ] } }
{ "type": "Feature", "properties": { "id": 0, "Name": "Livingston", "Space_Accu": "High", "Type": "Town", "Natur_Type": null, "Wikipedia": null, "Info": null }, "geometry": { "type": "Point", "coordinates": [ -85.323, 36.3834 ] } }
{ "type": "Feature", "properties": { "id": 0, "Name": "Ft. Nash", "Space_Accu": "Medium", "Type": "Fort indicated by Historical landmark", "Natur_Type": null, "Wikipedia": null, "Info": null }, "geometry": { "type": "Point", "coordinates": [ -86.2403, 35.6282 ] } }
{ "type": "Feature", "properties": { "id": 0, "Name": "Charlotte", "Space_Accu": "High", "Type": "Town", "Natur_Type": null, "Wikipedia": null, "Info": null }, "geometry": { "type": "Point", "coordinates": [ -87.3397, 36.1773 ] } }
{ "type": "Feature", "properties": { "id": 0, "Name": "Waverly", "Space_Accu": "High", "Type": "City", "Natur_Type": null, "Wikipedia": null, "Info": null }, "geometry": { "type": "Point", "coordinates": [ -87.7947, 36.0839 ] } }
{ "type": "Feature", "properties": { "id": 0, "Name": "Florence", "Space_Accu": "High", "Type": "City", "Natur_Type": null, "Wikipedia": null, "Info": null }, "geometry": { "type": "Point", "coordinates": [ -87.6773, 34.7998 ] } }
{ "type": "Feature", "properties": { "id": 0, "Name": "Winchester", "Space_Accu": "High", "Type": "City", "Natur_Type": null, "Wikipedia": null, "Info": null }, "geometry": { "type": "Point", "coordinates": [ -86.1122, 35.1859 ] } }
{ "type": "Feature", "properties": { "id": 0, "Name": "Huntsville", "Space_Accu": "High", "Type": "City", "Natur_Type": null, "Wikipedia": null, "Info": null }, "geometry": { "type": "Point", "coordinates": [ -86.5861, 34.7304 ] } }
{ "type": "Feature", "properties": { "id": 0, "Name": "Chickasaw Old Fields", "Space_Accu": "High", "Type": "Natural", "Natur_Type": "Cultural Feature (Historical)", "Wikipedia": null, "Info": null }, "geometry": { "type": "Point", "coordinates": [ -86.5624913, 34.5750914 ] } }
{ "type": "Feature", "properties": { "id": 0, "Name": "Dittos Landing", "Space_Accu": "High", "Type": "Historical site", "Natur_Type": null, "Wikipedia": null, "Info": null }, "geometry": { "type": "Point", "coordinates": [ -86.5591, 34.5767 ] } }
{ "type": "Feature", "properties": { "id": 0, "Name": "Camp Coffee", "Space_Accu": "Medium", "Type": "Historical site", "Natur_Type": null, "Wikipedia": null, "Info": null }, "geometry": { "type": "Point", "coordinates": [ -86.5555465, 34.5514803 ] } }
{ "type": "Feature", "properties": { "id": 0, "Name": "Robinsville", "Space_Accu": "High", "Type": "Town", "Natur_Type": null, "Wikipedia": null, "Info": null }, "geometry": { "type": "Point", "coordinates": [ -83.8074, 35.3229 ] } }
{ "type": "Feature", "properties": { "id": 0, "Name": "Bryson City", "Space_Accu": "High", "Type": "Town", "Natur_Type": null, "Wikipedia": "https:\/\/en.wikipedia.org\/wiki\/Bryson_City,_North_Carolina", "Info": "Used to be called Charleston" }, "geometry": { "type": "Point", "coordinates": [ -83.4474, 35.4309 ] } }
{ "type": "Feature", "properties": { "id": 0, "Name": "Hiwassee", "Space_Accu": "High", "Type": "Town", "Natur_Type": null, "Wikipedia": "https:\/\/en.wikipedia.org\/wiki\/Hiawassee,_Georgia", "Info": null }, "geometry": { "type": "Point", "coordinates": [ -83.7574, 34.9493 ] } }
{ "type": "Feature", "properties": { "id": 0, "Name": "Dahlonega", "Space_Accu": "High", "Type": "City", "Natur_Type": null, "Wikipedia": "https:\/\/en.wikipedia.org\/wiki\/Dahlonega,_Georgia", "Info": null }, "geometry": { "type": "Point", "coordinates": [ -83.9844, 34.5261 ] } }
{ "type": "Feature", "properties": { "id": 0, "Name": "Dawsonville", "Space_Accu": "High", "Type": "City", "Natur_Type": null, "Wikipedia": "https:\/\/en.wikipedia.org\/wiki\/Dawsonville,_Georgia", "Info": null }, "geometry": { "type": "Point", "coordinates": [ -84.1191, 34.4212 ] } }
{ "type": "Feature", "properties": { "id": 0, "Name": "Culman", "Space_Accu": "High", "Type": "City", "Natur_Type": null, "Wikipedia": null, "Info": null }, "geometry": { "type": "Point", "coordinates": [ -86.8436, 34.1748 ] } }
{ "type": "Feature", "properties": { "id": 0, "Name": "Blountsville", "Space_Accu": "High", "Type": "Town", "Natur_Type": null, "Wikipedia": null, "Info": null }, "geometry": { "type": "Point", "coordinates": [ -86.5911, 34.0815 ] } }
{ "type": "Feature", "properties": { "id": 0, "Name": "Houston", "Space_Accu": "Medium", "Type": "Unincorporated Community", "Natur_Type": null, "Wikipedia": null, "Info": null }, "geometry": { "type": "Point", "coordinates": [ -87.2581, 34.1415 ] } }
{ "type": "Feature", "properties": { "id": 0, "Name": "Ashville", "Space_Accu": "High", "Type": "City", "Natur_Type": null, "Wikipedia": null, "Info": null }, "geometry": { "type": "Point", "coordinates": [ -86.2544, 33.837 ] } }
{ "type": "Feature", "properties": { "id": 0, "Name": "Gadsden", "Space_Accu": "High", "Type": "City", "Natur_Type": null, "Wikipedia": null, "Info": null }, "geometry": { "type": "Point", "coordinates": [ -86.0066, 34.0143 ] } }
{ "type": "Feature", "properties": { "id": 0, "Name": "Dallas", "Space_Accu": "High", "Type": "City", "Natur_Type": null, "Wikipedia": null, "Info": null }, "geometry": { "type": "Point", "coordinates": [ -84.8413, 33.9245 ] } }
{ "type": "Feature", "properties": { "id": 0, "Name": "Marietta", "Space_Accu": "High", "Type": "City", "Natur_Type": null, "Wikipedia": null, "Info": null }, "geometry": { "type": "Point", "coordinates": [ -84.5499, 33.9526 ] } }
